[{"sno":"1172","sna":"樹林火車站(後站)","tot":"28","sbi":"4","sarea":"樹林區","mday":"20240720134936","lat":"24.992553","lng":"121.424652","ar":"後站街6巷11號對面","sareaen":"Shulin Dist.","snaen":"Shulin Railway Rear Station","aren":"No.11, Ln. 6, Houzhan St. (opposite)","bemp":"22","act":"1"},{"sno":"1176","sna":"光華公園","tot":"20","sbi":"1","sarea":"樹林區","mday":"20240720134944","lat":"25.005412","lng":"121.413157","ar":"保安街2段259號對面(鄰近樹林興仁花園夜市)","sareaen":"Shulin Dist.","snaen":"Guanghua Park","aren":"No.259, Sec. 2, Bao’an St. (opposite)","bemp":"19","act":"1"},{"sno":"1177","sna":"樹林大安活動中心","tot":"22","sbi":"3","sarea":"樹林區","mday":"20240720134944","lat":"24.986391","lng":"121.414770","ar":"備前街/復興路372巷口","sareaen":"Shulin Dist.","snaen":"Shulin Da'an Activity Center","aren":"Beiqian St./Ln. 372, Fuxing Rd.","bemp":"19","act":"1"},{"sno":"1198","sna":"鶯歌國中","tot":"24","sbi":"16","sarea":"鶯歌區","mday":"20240720134933","lat":"24.951734","lng":"121.342963","ar":"建國路420號對面人行道(鄰近新太源藝術工坊)","sareaen":"Yingge Dist.","snaen":"Yingge Junior High School","aren":"No.420, Jianguo Rd.(opposite)","bemp":"8","act":"1"},{"sno":"1201","sna":"鶯歌火車站(仁愛路)","tot":"40","sbi":"4","sarea":"鶯歌區","mday":"20240720134929","lat":"24.955591","lng":"121.354376","ar":"仁愛路55號對側人行道(鄰近鶯歌車站/宏德宮(孫臏廟))","sareaen":"Yingge Dist.","snaen":"Yingge Railway Station(Ren’ai  Rd.)","aren":"No.55, Ren’ai Rd., Yingge Dist.(opposite)","bemp":"35","act":"1"},{"sno":"1206","sna":"文化館前路口","tot":"10","sbi":"5","sarea":"鶯歌區","mday":"20240720134925","lat":"24.949549","lng":"121.352832","ar":"鶯歌區文化路407號(鄰近鶯歌陶瓷博物館)","sareaen":"Yingge Dist.","snaen":"New Taipei City Yingge Ceramics  Museum","aren":"No.407, Wenhua Rd.","bemp":"3","act":"1"},{"sno":"1208","sna":"尖山公園","tot":"22","sbi":"12","sarea":"鶯歌區","mday":"20240720134930","lat":"24.948220","lng":"121.345767","ar":"鶯歌區尖山路161號對面","sareaen":"Yingge Dist.","snaen":"Jianshan Park","aren":"No.161, Jianshan Rd.(opposite)","bemp":"9","act":"1"},{"sno":"1220","sna":"新北市立圖書館鶯歌分館 ","tot":"24","sbi":"4","sarea":"鶯歌區","mday":"20240720134938","lat":"24.957195","lng":"121.349704","ar":"中山路150號(圖書館內停車場)","sareaen":"Yingge Dist.","snaen":"New Taipei City Library Yingge Branch","aren":"No.150, Zhongshan Rd.","bemp":"18","act":"1"},{"sno":"1235","sna":"捷運淡水站","tot":"28","sbi":"0","sarea":"淡水區","mday":"20240720134930","lat":"25.168826","lng":"121.444183","ar":"公明街73巷6號前(淡水老街廣場)(鄰近淡水捷運站/淡水龍山寺/捷運淡水線)","sareaen":"Tamsui Dist.","snaen":"MRT Tamsui Station","aren":"No.6, Ln. 73, Gongming St.","bemp":"28","act":"1"},{"sno":"1243","sna":"三峽區公所(三峽老街)","tot":"14","sbi":"0","sarea":"三峽區","mday":"20240720134928","lat":"24.934187","lng":"121.369158","ar":"中山路17號(公所旁徒步區)(鄰近三峽清水祖師廟/三峽歷史文物館/三峽老街)","sareaen":"Sanxia Dist.","snaen":"Sanxia District Office(Sanxia Old Street)","aren":"No.17, Zhongshan Rd.","bemp":"13","act":"1"},{"sno":"1250","sna":"國立臺北大學(三峽校區)","tot":"30","sbi":"6","sarea":"三峽區","mday":"20240720134931","lat":"24.945553","lng":"121.373260","ar":"學勤路大學路口(面校門右側人行道)(鄰近國立台北大學)","sareaen":"Sanxia Dist.","snaen":"National Taipei University(Sanxia Campus)","aren":"Xueqin Rd. / Daxue Rd. intersection","bemp":"24","act":"1"},{"sno":"1259","sna":"新北市立鶯歌高級工商職業學校","tot":"28","sbi":"0","sarea":"鶯歌區","mday":"20240720134916","lat":"24.939095","lng":"121.334639","ar":"中正三路235~237號(對面人行道)(鄰近亞洛美精靈國度)","sareaen":"Yingge Dist.","snaen":"New Taipei Municipal Yinggle Vocational High School","aren":"No.235-237, Zhongzheng 3rd Rd.(oppsite)","bemp":"27","act":"1"},{"sno":"1265","sna":"永昌里兒一公園","tot":"20","sbi":"4","sarea":"鶯歌區","mday":"20240720134920","lat":"24.956661","lng":"121.339645","ar":"鶯桃路182巷96弄36-38號對側","sareaen":"Yingge Dist.","snaen":"Yongchang Village Children Park (No.1)","aren":"No.36-38, Aly. 96, Ln. 182, Yingtao Rd.(oppsite)","bemp":"15","act":"1"},{"sno":"1273","sna":"三峽區礁溪行政中心","tot":"16","sbi":"9","sarea":"三峽區","mday":"20240720134944","lat":"24.928438","lng":"121.375921","ar":"光明路71號(左側)","sareaen":"Sanxia Dist.","snaen":"Chiaohsi Office of Sanxia District","aren":"No.71, Guangming Rd., Sanxia Dist.","bemp":"7","act":"1"},{"sno":"1281","sna":"學成大義路口","tot":"26","sbi":"5","sarea":"樹林區","mday":"20240720134924","lat":"24.945099","lng":"121.378671","ar":"學成路大義路口(西北側人行道)","sareaen":"Shulin Dist.","snaen":"Xuecheng & Dayi Intersection","aren":"Xuecheng Rd./Dayi Rd.(intersecion)","bemp":"19","act":"1"},{"sno":"1287","sna":"恩主公醫院","tot":"32","sbi":"0","sarea":"三峽區","mday":"20240720134940","lat":"24.938912","lng":"121.363553","ar":"復興路372號(對面公車亭後方人行道)","sareaen":"Sanxia Dist.","snaen":"En Chu Kong Hospital","aren":"No.372, Fuxing Rd.(oppsite)","bemp":"32","act":"1"},{"sno":"1322","sna":"龍埔公園","tot":"18","sbi":"11","sarea":"三峽區","mday":"20240720134926","lat":"24.938911","lng":"121.373676","ar":"新北市三峽區國光街85號","sareaen":"Sanxia Dist.","snaen":"Longpu Park","aren":"No.85, Guoguang St., Sanxia Dist","bemp":"7","act":"1"},{"sno":"1323","sna":"尖山國中","tot":"24","sbi":"4","sarea":"鶯歌區","mday":"20240720134937","lat":"24.944300","lng":"121.342089","ar":"鶯歌區國中街1號(人行道)","sareaen":"Yingge Dist.","snaen":"Municipal Jianshan Junior High School","aren":"No.1, Guozhong St., Yingge Dist(sidewalk)","bemp":"16","act":"1"},{"sno":"1344","sna":"樹林國小","tot":"22","sbi":"0","sarea":"樹林區","mday":"20240720134919","lat":"24.989136","lng":"121.41791","ar":"樹林區啟智街/文化街口(啟智街129號)","sareaen":"Shulin Dist.","snaen":"Shulin elementary school","aren":"Wenhua St./Qizhi St., Shulin Dist., New Taipei City","bemp":"22","act":"1"},{"sno":"1345","sna":"永吉國小","tot":"30","sbi":"1","sarea":"鶯歌區","mday":"20240720134918","lat":"24.958747","lng":"121.333095","ar":"鶯歌區德昌二街39號(對面人行道)","sareaen":"Yingge Dist.","snaen":"Yongchi elementary school","aren":"No.39, Dechang 2nd St., Yingge Dist.","bemp":"29","act":"1"},{"sno":"1346","sna":"中園國小","tot":"16","sbi":"4","sarea":"三峽區","mday":"20240720134942","lat":"24.927551","lng":"121.366919","ar":"三峽區弘園街55號(對面人行道)","sareaen":"Sanxia Dist.","snaen":"Zhongyuan elementary school","aren":"No.55, Hongyuan St., Sanxia Dist","bemp":"11","act":"1"},{"sno":"1347","sna":"介壽國小","tot":"18","sbi":"3","sarea":"三峽區","mday":"20240720134926","lat":"24.930341","lng":"121.378835","ar":"三峽區介壽路一段/大同路口(人行道)","sareaen":"Sanxia Dist.","snaen":"Jieshou elementary school","aren":"No.1, Sec. 1, Jieshou Rd., Sanxia Dist./ Datong Rd.","bemp":"10","act":"1"},{"sno":"1348","sna":"安溪國中","tot":"26","sbi":"16","sarea":"三峽區","mday":"20240720134935","lat":"24.926790","lng":"121.371957","ar":"三峽區中正路一段/大同路(人行道路橋旁)","sareaen":"Sanxia Dist.","snaen":"Ansi Junior High School","aren":"Zhongzheng Road Section / Datong Road (next to the sidewalk)","bemp":"9","act":"1"},{"sno":"1349","sna":"龍埔國小","tot":"18","sbi":"8","sarea":"三峽區","mday":"20240720134927","lat":"24.941224","lng":"121.376763","ar":"三峽區大學路47號(對面人行道)","sareaen":"Sanxia Dist.","snaen":"Longpu elementary school","aren":"No.47, Daxue Rd., Sanxia Dist.","bemp":"8","act":"1"},{"sno":"1351","sna":"樹林區公所","tot":"28","sbi":"0","sarea":"樹林區","mday":"20240720134929","lat":"24.989760","lng":"121.424780","ar":"樹林區博愛街198-1~198-5號(對面人行道)","sareaen":"Shulin Dist.","snaen":"Shulin District Office","aren":"No.198-1~198-5, Bo’ai St., Shulin Dist.","bemp":"28","act":"1"},{"sno":"1362","sna":"安溪國小","tot":"24","sbi":"5","sarea":"三峽區","mday":"20240720134947","lat":"24.930621","lng":"121.372344","ar":"中華路61號(對面路側)(鄰近李梅樹紀念館)","sareaen":"Sanxia Dist.","snaen":"Anxi Elementary School","aren":"No.61, Zhonghua Rd., Sanxia Dist.","bemp":"18","act":"1"},{"sno":"1423","sna":"鳳祥公園","tot":"22","sbi":"0","sarea":"鶯歌區","mday":"20240720134944","lat":"24.962819","lng":"121.330254","ar":"鶯桃路413巷65弄4號(對面)","sareaen":"Yingge Dist.","snaen":"Fengxiang Park","aren":"No.4, Aly. 65, Ln. 413, Yingtao Rd., Yingge Dist.","bemp":"21","act":"1"},{"sno":"1433","sna":"樹林大安站","tot":"10","sbi":"3","sarea":"樹林區","mday":"20240720134937","lat":"24.997312","lng":"121.421725","ar":"大安路118號(外側)","sareaen":"Shulin Dist.","snaen":"Shulin Da’an","aren":"No.118, Da’an Rd., Shulin Dist.","bemp":"7","act":"1"},{"sno":"1449","sna":"明德高中","tot":"46","sbi":"0","sarea":"三峽區","mday":"20240720134931","lat":"24.907449","lng":"121.364848","ar":"中正路二段/中正路二段395巷口","sareaen":"Sanxia Dist.","snaen":"MingDer Senior High School","aren":"Sec. 2, Zhongzheng Rd. / Ln. 395, Sec. 2, Zhongzheng Rd., Sanxia Dist.","bemp":"45","act":"1"},{"sno":"1450","sna":"鳳鳴國小","tot":"22","sbi":"9","sarea":"鶯歌區","mday":"20240720134938","lat":"24.969198","lng":"121.334806","ar":"永和街120號(校門前)","sareaen":"Yingge Dist.","snaen":"Fengming Elementary School","aren":"No.120, Yonghe St., Yingge Dist.","bemp":"13","act":"1"}]